[{"city": "New York, NY", "lng": -73.3566912, "lat": 40.7412359, "slope": 971.4438835477702}, {"city": "Los Angeles-Long Beach-Anaheim, CA", "lng": -117.9145, "lat": 33.83529, "slope": 1577.0270542146966}, {"city": "Chicago, IL", "lng": -87.6244212, "lat": 41.8755616, "slope": 194.5654655684674}, {"city": "Dallas-Fort Worth, TX", "lng": -97.32085, "lat": 32.72541, "slope": 382.19037657707014}, {"city": "Philadelphia, PA", "lng": -75.1635262, "lat": 39.9527237, "slope": 451.19858890213936}, {"city": "Houston, TX", "lng": -95.3676974, "lat": 29.7589382, "slope": 329.9984862513247}, {"city": "Washington, DC", "lng": -77.0365529, "lat": 38.8948932, "slope": 894.419804895546}, {"city": "Miami-Fort Lauderdale, FL", "lng": -80.14338, "lat": 26.12231, "slope": 534.4576942094883}, {"city": "Atlanta, GA", "lng": -84.3901849, "lat": 33.7490987, "slope": 194.25408030827128}, {"city": "Boston, MA", "lng": -71.0582912, "lat": 42.3602534, "slope": 911.4090567149145}, {"city": "San Francisco, CA", "lng": -122.4199061, "lat": 37.7790262, "slope": 2552.7806507112327}, {"city": "Detroit, MI", "lng": -83.0466403, "lat": 42.3315509, "slope": 10.164000181684047}, {"city": "Riverside, CA", "lng": -61.5103698, "lat": 45.4261062, "slope": 761.9210519865019}, {"city": "Phoenix, AZ", "lng": -112.0741417, "lat": 33.4484367, "slope": 385.974188793565}, {"city": "Seattle, WA", "lng": -122.3300624, "lat": 47.6038321, "slope": 987.503441744015}, {"city": "Minneapolis-St Paul, MN", "lng": -93.09327, "lat": 44.94441, "slope": 417.33806144431657}, {"city": "San Diego, CA", "lng": -117.1627714, "lat": 32.7174209, "slope": 1232.6075628985016}, {"city": "St. Louis, MO", "lng": -90.1994097, "lat": 38.6268039, "slope": 214.0539232830233}, {"city": "Tampa, FL", "lng": -82.458444, "lat": 27.9477595, "slope": 341.1950959945156}, {"city": "Baltimore, MD", "lng": -76.610759, "lat": 39.2908816, "slope": 566.0207694825664}, {"city": "Denver, CO", "lng": -104.9848623, "lat": 39.7392364, "slope": 776.6021191089815}, {"city": "Pittsburgh, PA", "lng": -79.9900861, "lat": 40.4416941, "slope": 253.00526343842807}, {"city": "Portland, OR", "lng": -122.6741949, "lat": 45.5202471, "slope": 823.2845011605158}, {"city": "Charlotte, NC", "lng": -80.843083, "lat": 35.2271986, "slope": 241.4942815466569}, {"city": "Sacramento, CA", "lng": -121.4943996, "lat": 38.5815719, "slope": 728.1918793687017}, {"city": "San Antonio, TX", "lng": -98.4951405, "lat": 29.4246002, "slope": 308.90811382233795}, {"city": "Orlando, FL", "lng": -81.3790304, "lat": 28.5421109, "slope": 353.99684161334557}, {"city": "Cincinnati, OH", "lng": -84.5124602, "lat": 39.1014537, "slope": 147.69031630075588}, {"city": "Cleveland, OH", "lng": -81.6934446, "lat": 41.5051613, "slope": 43.826384715026556}, {"city": "Kansas City, MO", "lng": -94.5781416, "lat": 39.100105, "slope": 270.5510356451655}, {"city": "Las Vegas, NV", "lng": -115.1485163, "lat": 36.1672559, "slope": 200.240254170882}, {"city": "Columbus, OH", "lng": -83.0007065, "lat": 39.9622601, "slope": 193.90000737064472}, {"city": "San Jose, CA", "lng": -121.8905833, "lat": 37.3361905, "slope": 2979.952289654064}, {"city": "Austin, TX", "lng": -97.7436995, "lat": 30.2711286, "slope": 511.03224980664214}, {"city": "Virginia Beach, VA", "lng": -75.9774183, "lat": 36.8529841, "slope": 504.5045083665116}, {"city": "Nashville, TN", "lng": -86.7743531, "lat": 36.1622296, "slope": 428.86194256795636}, {"city": "Providence, RI", "lng": -71.4128343, "lat": 41.8239891, "slope": 541.6981235589326}, {"city": "Milwaukee, WI", "lng": -87.922497, "lat": 43.0349931, "slope": 251.31756915734596}, {"city": "Jacksonville, FL", "lng": -81.655651, "lat": 30.3321838, "slope": 330.89559098629167}, {"city": "Memphis, TN", "lng": -90.0516285, "lat": 35.1490215, "slope": 53.970739781182054}, {"city": "Oklahoma City, OK", "lng": -97.5170536, "lat": 35.4729886, "slope": 262.77163938547255}, {"city": "Louisville-Jefferson County, KY", "lng": -85.75941, "lat": 38.25424, "slope": 212.077161260904}, {"city": "Hartford, CT", "lng": -72.6908547, "lat": 41.764582, "slope": 331.5786987596207}, {"city": "Richmond, VA", "lng": -77.43428, "lat": 37.5385087, "slope": 430.70064221185345}, {"city": "New Orleans, LA", "lng": -90.0701156, "lat": 29.9499323, "slope": 348.667555847095}, {"city": "Buffalo, NY", "lng": -78.8783922, "lat": 42.8867166, "slope": 259.1199633459649}, {"city": "Raleigh, NC", "lng": -78.6390989, "lat": 35.7803977, "slope": 337.6702536942045}, {"city": "Birmingham, AL", "lng": -86.8024326, "lat": 33.5206824, "slope": 141.90547507787338}, {"city": "Salt Lake City, UT", "lng": -111.8867975, "lat": 40.7596198, "slope": 553.1098194123298}, {"city": "Rochester, NY", "lng": -77.615214, "lat": 43.157285, "slope": 187.6562564106459}, {"city": "Grand Rapids, MI", "lng": -85.6678639, "lat": 42.9632405, "slope": 244.3604545980942}, {"city": "Tucson, AZ", "lng": -110.9748477, "lat": 32.2228765, "slope": 260.603082180291}, {"city": "Urban Honolulu, HI", "lng": -168.021815, "lat": 24.859832, "slope": 1811.3059971612954}, {"city": "Tulsa, OK", "lng": -95.9929113, "lat": 36.1556805, "slope": 187.55605671244996}, {"city": "Fresno, CA", "lng": -119.7088613, "lat": 36.7295295, "slope": 431.1126963614114}, {"city": "Worcester, MA", "lng": -71.8022934, "lat": 42.2625932, "slope": 417.18119528719365}, {"city": "Stamford, CT", "lng": -73.5387341, "lat": 41.0534302, "slope": 578.9655177146051}, {"city": "Albany, NY", "lng": -73.754968, "lat": 42.6511674, "slope": 389.46400121618984}, {"city": "Omaha, NE", "lng": -95.9383758, "lat": 41.2587459, "slope": 241.46216570600976}, {"city": "New Haven, CT", "lng": -72.9250518, "lat": 41.3082138, "slope": 313.02029310686606}, {"city": "Bakersfield, CA", "lng": -119.0194639, "lat": 35.3738712, "slope": 322.1246295626466}, {"city": "Knoxville, TN", "lng": -83.9210261, "lat": 35.9603948, "slope": 273.1466597842684}, {"city": "Greenville, SC", "lng": -82.3984882, "lat": 34.851354, "slope": 226.49244171066624}, {"city": "Ventura, CA", "lng": -119.358352, "lat": 34.330829, "slope": 1255.8046100180304}, {"city": "Allentown, PA", "lng": -75.4712794, "lat": 40.6022059, "slope": 352.57775828983324}, {"city": "El Paso, TX", "lng": -106.4646348, "lat": 31.7754152, "slope": 176.55531358681273}, {"city": "Dayton, OH", "lng": -84.1916069, "lat": 39.7589478, "slope": 42.71150929359328}, {"city": "Columbia, SC", "lng": -81.0343313, "lat": 34.0007493, "slope": 159.54688770418676}, {"city": "Greensboro, NC", "lng": -79.7919754, "lat": 36.0726355, "slope": 106.44435895100167}, {"city": "Akron, OH", "lng": -81.518485, "lat": 41.083064, "slope": 86.80082593976013}, {"city": "North Port-Sarasota-Bradenton, FL", "lng": -82.175602, "lat": 27.074755, "slope": 422.0516020329366}, {"city": "Little Rock, AR", "lng": -92.2895948, "lat": 34.7464809, "slope": 216.0327442736201}, {"city": "Stockton, CA", "lng": -99.45, "lat": 49.583333, "slope": 706.2796123909388}, {"city": "Charleston, SC", "lng": -79.9402728, "lat": 32.7876012, "slope": 468.98639253401313}, {"city": "Syracuse, NY", "lng": -76.1474244, "lat": 43.0481221, "slope": 224.73309868493507}, {"city": "Colorado Springs, CO", "lng": -104.8253485, "lat": 38.8339578, "slope": 457.0926007915126}, {"city": "Winston-Salem, NC", "lng": -80.2440518, "lat": 36.0998131, "slope": 143.23619405391844}, {"city": "Springfield, MA", "lng": -72.589811, "lat": 42.1014831, "slope": 400.64370588438163}, {"city": "Fort Myers, FL", "lng": -81.8723084, "lat": 26.640628, "slope": 283.24208108812434}, {"city": "Toledo, OH", "lng": -83.5127283, "lat": 41.6786754, "slope": 65.28058239528212}, {"city": "Madison, WI", "lng": -89.3837613, "lat": 43.074761, "slope": 448.8178683760123}, {"city": "Lakeland, FL", "lng": -81.9498042, "lat": 28.0394654, "slope": 236.8704889361441}, {"city": "Ogden, UT", "lng": -111.9738429, "lat": 41.2230048, "slope": 440.93248826443624}, {"city": "Daytona Beach, FL", "lng": -81.0228331, "lat": 29.2108147, "slope": 298.85921722344625}, {"city": "Des Moines, IA", "lng": -93.6037149, "lat": 41.5910641, "slope": 274.73087334879995}, {"city": "Youngstown, OH", "lng": -80.6520161, "lat": 41.1035786, "slope": 24.017892634085154}, {"city": "Augusta, GA", "lng": -81.9748429, "lat": 33.4709714, "slope": 204.72628855963436}, {"city": "Scranton, PA", "lng": -75.6621294, "lat": 41.4086874, "slope": 143.6105654386076}, {"city": "Harrisburg, PA", "lng": -76.8861122, "lat": 40.2663107, "slope": 296.0494562632128}, {"city": "Melbourne, FL", "lng": -80.6081089, "lat": 28.0836269, "slope": 312.9964202240631}, {"city": "Chattanooga, TN", "lng": -85.3094883, "lat": 35.0457219, "slope": 230.37999614566917}, {"city": "Spokane, WA", "lng": -117.4235106, "lat": 47.6571934, "slope": 402.71674556995475}, {"city": "Portland, ME", "lng": -70.262393, "lat": 43.658784, "slope": 578.8831229941462}, {"city": "Durham, NC", "lng": -78.9018053, "lat": 35.996653, "slope": 304.5882076793499}, {"city": "Santa Rosa, CA", "lng": -122.783159, "lat": 38.450412, "slope": 1209.1865847693475}, {"city": "Lexington, KY", "lng": -84.4970393, "lat": 38.0464066, "slope": 237.38700097436356}, {"city": "Lansing, MI", "lng": -84.5553805, "lat": 42.7337712, "slope": 151.93025185389067}, {"city": "Fayetteville, AR", "lng": -94.1574328, "lat": 36.0625843, "slope": 264.8266954021209}, {"city": "Pensacola, FL", "lng": -87.2169149, "lat": 30.421309, "slope": 234.96579316646327}, {"city": "Visalia, CA", "lng": -119.2920585, "lat": 36.3302284, "slope": 366.8704025289158}, {"city": "York, PA", "lng": -76.727392, "lat": 39.962398, "slope": 254.10091136948935}, {"city": "Flint, MI", "lng": -83.6900211, "lat": 43.0161693, "slope": -175.8220951624342}, {"city": "Reno, NV", "lng": -119.8126581, "lat": 39.5261206, "slope": 433.0906993043375}, {"city": "Asheville, NC", "lng": -82.5540161, "lat": 35.6009498, "slope": 544.1677830108349}, {"city": "Port St. Lucie, FL", "lng": -80.3503283, "lat": 27.2939333, "slope": 338.7627199580376}, {"city": "Santa Maria-Santa Barbara, CA", "lng": -120.4358577, "lat": 34.9531295, "slope": 1168.1460705350914}, {"city": "Salinas, CA", "lng": -121.6550372, "lat": 36.6744117, "slope": 1137.8651911343484}, {"city": "Vallejo, CA", "lng": -122.2566367, "lat": 38.1040864, "slope": 834.490219342238}, {"city": "Mobile, AL", "lng": -88.0430541, "lat": 30.6943566, "slope": 122.73348589528374}, {"city": "Reading, PA", "lng": -75.9279495, "lat": 40.335345, "slope": 301.333022864206}, {"city": "Canton, OH", "lng": -81.3784445, "lat": 40.7989522, "slope": 98.10077213036493}, {"city": "Manchester, NH", "lng": -71.4547891, "lat": 42.9956397, "slope": 504.75365979924106}, {"city": "Salem, OR", "lng": -123.033121, "lat": 44.9391565, "slope": 479.7609691197315}, {"city": "Anchorage, AK", "lng": -149.8948523, "lat": 61.2163129, "slope": 697.5860128837728}, {"city": "Montgomery, AL", "lng": -86.3006485, "lat": 32.3669656, "slope": 88.86629795502664}, {"city": "Salisbury, MD", "lng": -75.6008881, "lat": 38.3662114, "slope": 462.8837042875204}, {"city": "Tallahassee, FL", "lng": -84.2809332, "lat": 30.4380832, "slope": 258.6614883360469}, {"city": "Trenton, NJ", "lng": -74.7429463, "lat": 40.2170575, "slope": 371.0113457796294}, {"city": "Fayetteville, NC", "lng": -78.878292, "lat": 35.0525759, "slope": 116.33790507800029}, {"city": "Hickory, NC", "lng": -81.3442915, "lat": 35.7333312, "slope": 153.65530915034182}, {"city": "Huntington, WV", "lng": -82.445154, "lat": 38.4192496, "slope": 164.75508532988349}, {"city": "Eugene, OR", "lng": -123.0950506, "lat": 44.0505054, "slope": 488.73868617352383}, {"city": "Rockford, IL", "lng": -89.093966, "lat": 42.2713945, "slope": 78.30669729709435}, {"city": "Savannah, GA", "lng": -81.0911768, "lat": 32.0809263, "slope": 301.66569763479254}, {"city": "Ann Arbor, MI", "lng": -83.7312291, "lat": 42.2681569, "slope": 276.2241248243834}, {"city": "Kalamazoo, MI", "lng": -85.5872286, "lat": 42.291707, "slope": 124.81209109667527}, {"city": "Naples, FL", "lng": -81.7942944, "lat": 26.1421976, "slope": 608.743835665406}, {"city": "Evansville, IN", "lng": -87.5558483, "lat": 37.9747645, "slope": 153.3851576089809}, {"city": "Kingsport, TN", "lng": -82.5594293, "lat": 36.550238, "slope": 166.11822748871214}, {"city": "Lincoln, NE", "lng": -96.7077751, "lat": 40.8088861, "slope": 269.46837902034844}, {"city": "Fort Collins, CO", "lng": -105.0668085, "lat": 40.5508527, "slope": 688.1734670505101}, {"city": "Utica, NY", "lng": -75.2326641, "lat": 43.1009031, "slope": 228.59669875931894}, {"city": "Boulder, CO", "lng": -105.2705456, "lat": 40.0149856, "slope": 1120.8125937122736}, {"city": "Lubbock, TX", "lng": -101.879336, "lat": 33.5635206, "slope": 242.7090110206061}, {"city": "Erie, PA", "lng": -80.0852695, "lat": 42.1294712, "slope": 161.6848375023501}, {"city": "Fort Smith, AR", "lng": -94.4248983, "lat": 35.3872218, "slope": 150.58914018495116}, {"city": "Atlantic City, NJ", "lng": -74.4229351, "lat": 39.3642852, "slope": 293.7601177985293}, {"city": "New London, CT", "lng": -72.0997804, "lat": 41.3556187, "slope": 312.0506263949796}, {"city": "San Luis Obispo, CA", "lng": -120.6596156, "lat": 35.2827525, "slope": 1358.33088978688}, {"city": "Gainesville, FL", "lng": -82.3249961, "lat": 29.6519396, "slope": 289.27182915107085}, {"city": "Santa Cruz, CA", "lng": -122.0285259, "lat": 36.9749416, "slope": 1783.5003530817144}, {"city": "Clarksville, TN", "lng": -87.3588703, "lat": 36.5277607, "slope": 223.58996850223048}, {"city": "Cedar Rapids, IA", "lng": -91.6704053, "lat": 41.9758872, "slope": 195.15689502101037}, {"city": "Kennewick, WA", "lng": -119.1199192, "lat": 46.2087066, "slope": 496.1833425994542}, {"city": "Greeley, CO", "lng": -104.7091322, "lat": 40.4233142, "slope": 481.757126265767}, {"city": "Olympia, WA", "lng": -122.8950075, "lat": 47.0451022, "slope": 571.7773779504817}, {"city": "Binghamton, NY", "lng": -75.914341, "lat": 42.096968, "slope": 200.20767509124983}, {"city": "Bremerton, WA", "lng": -122.6246836, "lat": 47.5653663, "slope": 756.3744821455603}, {"city": "Lynchburg, VA", "lng": -79.1422464, "lat": 37.4137536, "slope": 319.6854852841038}, {"city": "Crestview-Fort Walton Beach-Destin, FL", "lng": -86.49578, "lat": 30.39353, "slope": 462.60418903450267}, {"city": "Topeka, KS", "lng": -95.677556, "lat": 39.049011, "slope": 170.59340059700546}, {"city": "Macon-Bibb County, GA", "lng": -83.6324022, "lat": 32.8406946, "slope": 86.2126382379424}, {"city": "Tuscaloosa, AL", "lng": -87.5675258, "lat": 33.2095614, "slope": 201.25158935395206}, {"city": "Charleston, WV", "lng": -81.6332812, "lat": 38.3505995, "slope": 113.25775670236145}, {"city": "Charlottesville, VA", "lng": -78.556765, "lat": 38.087663, "slope": 576.1326838866456}, {"city": "Claremont, NH", "lng": -72.347031, "lat": 43.377105, "slope": 470.12193612518126}, {"city": "Barnstable Town, MA", "lng": -70.303537, "lat": 41.704506, "slope": 908.4509589726875}, {"city": "Longview, TX", "lng": -94.74049, "lat": 32.5007031, "slope": 290.7157790363203}, {"city": "Burlington, VT", "lng": -73.2135472, "lat": 44.4762975, "slope": 651.6237706545089}, {"city": "Prescott, AZ", "lng": -112.4687616, "lat": 34.5399962, "slope": 528.6240038626469}, {"city": "Rochester, MN", "lng": -92.4630182, "lat": 44.0234387, "slope": 336.00642605032647}, {"city": "Medford, OR", "lng": -122.8718605, "lat": 42.3264181, "slope": 530.5182241286639}, {"city": "Lafayette-West Lafayette, IN", "lng": -86.90807, "lat": 40.42587, "slope": 116.80302409706204}, {"city": "Lake Havasu City, AZ", "lng": -114.3224495, "lat": 34.4838502, "slope": 363.938995935096}, {"city": "Saginaw, MI", "lng": -83.9490365, "lat": 43.4200387, "slope": -25.2825444857224}, {"city": "Johnson City, TN", "lng": -82.3534728, "lat": 36.3134398, "slope": 240.5959181684732}, {"city": "Athens, GA", "lng": -83.376398, "lat": 33.9597677, "slope": 241.7065546560048}, {"city": "Torrington, CT", "lng": -73.1212214, "lat": 41.8006523, "slope": 333.7162552024369}, {"city": "Hilton Head Island, SC", "lng": -80.7512616, "lat": 32.1618488, "slope": 316.0579331082469}, {"city": "Bloomington, IL", "lng": -88.9941403, "lat": 40.4731073, "slope": 141.42484482537733}, {"city": "Panama City, FL", "lng": -85.6545729, "lat": 30.1600827, "slope": 341.15670637878156}, {"city": "Kingston, NY", "lng": -74.0023702, "lat": 41.9287812, "slope": 438.58128079069644}, {"city": "Daphne, AL", "lng": -87.9036047, "lat": 30.6035255, "slope": 272.7112784327943}, {"city": "Gainesville, GA", "lng": -83.8240663, "lat": 34.2978794, "slope": 234.67508662226132}, {"city": "Warner Robins, GA", "lng": -83.606568, "lat": 32.6200973, "slope": 120.26959445072939}, {"city": "Blacksburg, VA", "lng": -80.4136767, "lat": 37.2296566, "slope": 358.22322606178136}, {"city": "Redding, CA", "lng": -122.3916754, "lat": 40.5863563, "slope": 589.7631257710484}, {"city": "Monroe, LA", "lng": -92.1193012, "lat": 32.5093109, "slope": 275.00973372774666}, {"city": "Muskegon, MI", "lng": -86.2483921, "lat": 43.2341813, "slope": 111.364543453195}, {"city": "Sioux City, IA", "lng": -96.4058782, "lat": 42.4966815, "slope": 217.62352705939557}, {"city": "Punta Gorda, FL", "lng": -82.0453664, "lat": 26.9297836, "slope": 388.89559229409485}, {"city": "Pueblo, CO", "lng": -104.609141, "lat": 38.2544472, "slope": 218.22954975135715}, {"city": "Bowling Green, KY", "lng": -86.4436018, "lat": 36.9903199, "slope": 233.00940228346798}, {"city": "Bend, OR", "lng": -121.3153096, "lat": 44.0581728, "slope": 833.2958261494276}, {"city": "Albany, GA", "lng": -84.1556809, "lat": 31.5782062, "slope": 115.42324037719658}, {"city": "Vineland, NJ", "lng": -75.0020265, "lat": 39.473152, "slope": 135.7291618787237}, {"city": "Niles, MI", "lng": -86.2541768, "lat": 41.8297694, "slope": 202.8097079187534}, {"city": "Bangor, ME", "lng": -68.850405, "lat": 44.848517, "slope": 271.2988564552017}, {"city": "Alexandria, LA", "lng": -92.4449087, "lat": 31.311248, "slope": 263.3248411886784}, {"city": "Rocky Mount, NC", "lng": -77.7956949, "lat": 35.9423833, "slope": 84.91976466383146}, {"city": "Monroe, MI", "lng": -83.3968252, "lat": 41.9145037, "slope": 32.26462062364408}, {"city": "Texarkana, TX", "lng": -94.0430977, "lat": 33.4254684, "slope": 174.12349566373533}, {"city": "Elizabethtown, KY", "lng": -85.8591285, "lat": 37.693952, "slope": 212.52867840567578}, {"city": "Grand Junction, CO", "lng": -108.5507317, "lat": 39.063956, "slope": 421.87950128467344}, {"city": "Concord, NH", "lng": -71.537476, "lat": 43.207178, "slope": 474.47245171234283}, {"city": "Traverse City, MI", "lng": -85.6165301, "lat": 44.7606441, "slope": 389.5355262644524}, {"city": "Dalton, GA", "lng": -84.9702475, "lat": 34.7691867, "slope": 156.72668866358123}, {"city": "Homosassa Springs, FL", "lng": -82.5759329, "lat": 28.8035939, "slope": 191.87506042931057}, {"city": "Auburn, AL", "lng": -85.5036435, "lat": 32.6550905, "slope": 225.4759577734489}, {"city": "Valdosta, GA", "lng": -83.2784851, "lat": 30.8327022, "slope": 161.0643931698401}, {"city": "Springfield, OH", "lng": -83.8088172, "lat": 39.9242266, "slope": 38.049645802460574}, {"city": "Vero Beach, FL", "lng": -80.3975399, "lat": 27.6387163, "slope": 322.40265752485396}, {"city": "Napa, CA", "lng": -122.23832, "lat": 38.442011, "slope": 1673.1674333243775}, {"city": "Battle Creek, MI", "lng": -85.1824269, "lat": 42.3192548, "slope": 57.644340831220596}, {"city": "Jamestown, NY", "lng": -79.2353259, "lat": 42.0970023, "slope": 140.70809199543788}, {"city": "Flagstaff, AZ", "lng": -111.6518229, "lat": 35.1987522, "slope": 694.3363634127566}, {"city": "Idaho Falls, ID", "lng": -112.0400919, "lat": 43.4935245, "slope": 373.6640082548538}, {"city": "Pittsfield, MA", "lng": -73.2453785, "lat": 42.4500967, "slope": 403.23000862261466}, {"city": "Lawton, OK", "lng": -98.3903305, "lat": 34.6086854, "slope": 162.3151464016104}, {"city": "Jackson, TN", "lng": -88.8177418, "lat": 35.6144446, "slope": 77.25451815407735}, {"city": "Morgantown, WV", "lng": -79.9559437, "lat": 39.6296809, "slope": 349.9496500125808}, {"city": "Glens Falls, NY", "lng": -73.644447, "lat": 43.309941, "slope": 421.652556735982}, {"city": "Winchester, VA", "lng": -78.1652404, "lat": 39.1852184, "slope": 479.6714329135267}, {"city": "Altoona, PA", "lng": -78.394736, "lat": 40.518681, "slope": 192.22388565568076}, {"city": "New Bern, NC", "lng": -77.0441143, "lat": 35.1084931, "slope": 209.58210166355747}, {"city": "London, KY", "lng": -84.0832646, "lat": 37.1289771, "slope": 179.39391776945908}, {"city": "Beckley, WV", "lng": -81.1881557, "lat": 37.7781702, "slope": 122.08882222110554}, {"city": "Mansfield, OH", "lng": -82.5154471, "lat": 40.75839, "slope": 26.017126001523657}, {"city": "Goldsboro, NC", "lng": -77.9927651, "lat": 35.3848841, "slope": 97.27897011704887}, {"city": "Augusta, ME", "lng": -69.779663, "lat": 44.310583, "slope": 303.0053886354349}, {"city": "Jonesboro, AR", "lng": -90.7034522, "lat": 35.8428646, "slope": 175.84334524591148}, {"city": "Mount Vernon, WA", "lng": -122.32642, "lat": 48.4200462, "slope": 693.269931201671}, {"city": "Watertown, NY", "lng": -75.9107565, "lat": 43.9747838, "slope": 403.29863401129006}, {"city": "Williamsport, PA", "lng": -77.0027671, "lat": 41.2493292, "slope": 267.23037318114115}, {"city": "Cleveland, TN", "lng": -84.8766115, "lat": 35.1595182, "slope": 255.26100872269515}, {"city": "Owensboro, KY", "lng": -87.1133304, "lat": 37.7742152, "slope": 125.36710672232472}, {"city": "Wooster, OH", "lng": -81.9383187, "lat": 40.7991766, "slope": 130.0976053184399}, {"city": "Morristown, TN", "lng": -83.2948923, "lat": 36.2139814, "slope": 240.97383728792062}, {"city": "Ogdensburg, NY", "lng": -75.486374, "lat": 44.694285, "slope": 124.15476157481706}, {"city": "Holland, MI", "lng": -86.1090828, "lat": 42.7876022, "slope": 179.1568603306921}, {"city": "Salem, OH", "lng": -80.8567502, "lat": 40.9008923, "slope": 86.31773493816881}, {"city": "Bay City, MI", "lng": -83.8888648, "lat": 43.5944677, "slope": 57.64043681230612}, {"city": "Lewiston, ME", "lng": -70.2147764, "lat": 44.100351, "slope": 292.7097308656695}, {"city": "Roseburg, OR", "lng": -123.3417381, "lat": 43.216505, "slope": 358.2114827686616}, {"city": "Show Low, AZ", "lng": -110.0298327, "lat": 34.2542084, "slope": 450.2493389012886}, {"city": "Bluefield, WV", "lng": -81.2223195, "lat": 37.2698395, "slope": 112.61666644115445}, {"city": "Danville, VA", "lng": -79.3950228, "lat": 36.5859718, "slope": 139.95084645131203}, {"city": "Lima, OH", "lng": -84.105006, "lat": 40.7399785, "slope": 46.22937245180623}, {"city": "Cookeville, TN", "lng": -85.4997057, "lat": 36.1623886, "slope": 206.5151236542181}, {"city": "California-Lexington Park, MD", "lng": -76.45384, "lat": 38.26679, "slope": 539.7793974333623}, {"city": "Cumberland, MD", "lng": -78.762383, "lat": 39.6526498, "slope": 121.81591157546845}, {"city": "Ithaca, NY", "lng": -76.4968019, "lat": 42.4396039, "slope": 509.49478798506436}, {"city": "Ashtabula, OH", "lng": -80.789809, "lat": 41.865054, "slope": 118.70932337598798}, {"city": "Gettysburg, PA", "lng": -77.2311047, "lat": 39.8309417, "slope": 410.00085575599644}, {"city": "Pine Bluff, AR", "lng": -92.0140402, "lat": 34.2157064, "slope": 83.02219137483328}, {"city": "Tullahoma, TN", "lng": -86.2094342, "lat": 35.3620235, "slope": 213.96885862364013}, {"city": "Richmond, KY", "lng": -84.2946539, "lat": 37.7478572, "slope": 244.282689794395}, {"city": "Adrian, MI", "lng": -84.0373054, "lat": 41.8975152, "slope": 118.40564367550314}, {"city": "Corning, NY", "lng": -77.0543408, "lat": 42.1435257, "slope": 146.7745838373196}, {"city": "Paducah, KY", "lng": -88.6000478, "lat": 37.0833893, "slope": 105.72138334191705}, {"city": "Shelby, NC", "lng": -81.5402112, "lat": 35.2919489, "slope": 110.2087654386378}, {"city": "Ocean City, NJ", "lng": -74.5746001, "lat": 39.2776156, "slope": 936.72824344039}, {"city": "Rome, GA", "lng": -85.1646726, "lat": 34.257038, "slope": 102.08802565158736}, {"city": "Hot Springs, AR", "lng": -101.839602, "lat": 35.20603, "slope": 226.9071647176962}, {"city": "Greenwood, SC", "lng": -82.1617883, "lat": 34.1954001, "slope": 186.87550306201157}, {"city": "Clarksburg, WV", "lng": -80.3445341, "lat": 39.2806451, "slope": 156.4650965181399}, {"city": "The Villages, FL", "lng": -81.9533443, "lat": 28.9468504, "slope": 573.6603225300906}, {"city": "Parkersburg, WV", "lng": -81.5506916, "lat": 39.2699565, "slope": 127.8099674757726}, {"city": "Sevierville, TN", "lng": -83.561835, "lat": 35.8681455, "slope": 290.7151098350975}, {"city": "Elmira, NY", "lng": -76.8077338, "lat": 42.0897965, "slope": 156.60120069579818}, {"city": "Meadville, PA", "lng": -80.151449, "lat": 41.641445, "slope": 165.1715218776781}, {"city": "Lufkin, TX", "lng": -94.7288558, "lat": 31.3386242, "slope": 210.05071785737036}, {"city": "Zanesville, OH", "lng": -82.0131924, "lat": 39.9403453, "slope": 154.6918920024162}, {"city": "Corvallis, OR", "lng": -123.2620435, "lat": 44.5645659, "slope": 685.8242524844193}, {"city": "Bloomsburg, PA", "lng": -76.4537302, "lat": 41.0044958, "slope": 286.76423988524454}, {"city": "Russellville, AR", "lng": -93.1337856, "lat": 35.2784173, "slope": 176.02773064237059}, {"city": "Midland, MI", "lng": -84.2472117, "lat": 43.6155825, "slope": 101.57606481043452}, {"city": "Grants Pass, OR", "lng": -123.3272489, "lat": 42.4393707, "slope": 499.97033280288485}, {"city": "Plattsburgh, NY", "lng": -73.45562, "lat": 44.69282, "slope": 203.90084752521963}, {"city": "DuBois, PA", "lng": -78.7622342, "lat": 41.118651, "slope": 178.2507067544565}, {"city": "Danville, IL", "lng": -87.6304614, "lat": 40.125222, "slope": 72.445639684356}, {"city": "Manitowoc, WI", "lng": -87.6575841, "lat": 44.0886059, "slope": 127.04981856661716}, {"city": "Olean, NY", "lng": -78.4297419, "lat": 42.077565, "slope": 79.30080983533735}, {"city": "Auburn, NY", "lng": -76.5672029, "lat": 42.9320202, "slope": 265.99667449956956}, {"city": "Chillicothe, OH", "lng": -82.9824019, "lat": 39.3331197, "slope": 139.93335711523156}, {"city": "Hinesville, GA", "lng": -81.5960354, "lat": 31.8477298, "slope": 203.8466538958007}, {"city": "Warsaw, IN", "lng": -85.8530544, "lat": 41.2381017, "slope": 186.9209504640865}, {"city": "Stillwater, OK", "lng": -97.0585717, "lat": 36.1156306, "slope": 256.919587355897}, {"city": "Keene, NH", "lng": -72.2784264, "lat": 42.933597, "slope": 443.39491505323565}, {"city": "Sandusky, OH", "lng": -82.7079605, "lat": 41.4489397, "slope": 90.88555568415619}, {"city": "Searcy, AR", "lng": -91.7362488, "lat": 35.2506406, "slope": 190.3612664253166}, {"city": "Roanoke Rapids, NC", "lng": -77.6548026, "lat": 36.4610756, "slope": 62.87169513309922}, {"city": "Findlay, OH", "lng": -83.6503982, "lat": 41.0413873, "slope": 94.71494189136945}, {"city": "Glenwood Springs, CO", "lng": -107.3255001, "lat": 39.5507448, "slope": 1323.3455191501707}, {"city": "Muskogee, OK", "lng": -95.3696909, "lat": 35.7478769, "slope": 115.71546895282735}, {"city": "Frankfort, KY", "lng": -84.8732836, "lat": 38.2009055, "slope": 196.1707641985385}, {"city": "Owosso, MI", "lng": -84.1766359, "lat": 42.9978049, "slope": 73.00863366405162}, {"city": "Shawnee, OK", "lng": -96.9253004, "lat": 35.3272928, "slope": 134.52083912308706}, {"city": "North Wilkesboro, NC", "lng": -81.1475841, "lat": 36.1584651, "slope": 156.42630696612608}, {"city": "Greeneville, TN", "lng": -82.8309861, "lat": 36.1631575, "slope": 148.84038787531622}, {"city": "Martinsville, VA", "lng": -79.8725386, "lat": 36.6915262, "slope": 105.49500916308959}, {"city": "Forest City, NC", "lng": -81.8651028, "lat": 35.3340108, "slope": 131.7644135380367}, {"city": "Lake City, FL", "lng": -82.6392899, "lat": 30.1896756, "slope": 348.28066565036943}, {"city": "Kapaa, HI", "lng": -159.3191601, "lat": 22.0747334, "slope": 1389.9555293424842}, {"city": "Marquette, MI", "lng": -87.396433, "lat": 46.5434914, "slope": 267.2011511988003}, {"city": "LaGrange, GA", "lng": -85.0313269, "lat": 33.039291, "slope": 126.42598449203604}, {"city": "Morehead City, NC", "lng": -76.7260436, "lat": 34.7229391, "slope": 492.07243018221334}, {"city": "Marinette, WI", "lng": -87.6307265, "lat": 45.0999594, "slope": 124.50419472847668}, {"city": "Hudson, NY", "lng": -73.790959, "lat": 42.2528649, "slope": 545.8890680914611}, {"city": "Walla Walla, WA", "lng": -118.3302476, "lat": 46.0650381, "slope": 529.4422774816021}, {"city": "Oneonta, NY", "lng": -75.0629531, "lat": 42.453492, "slope": 372.44811948881454}, {"city": "Marietta, OH", "lng": -81.4548392, "lat": 39.4167742, "slope": 133.54313387305706}, {"city": "Rutland, VT", "lng": -72.9726065, "lat": 43.6106237, "slope": 404.2481459248827}, {"city": "Sturgis, MI", "lng": -85.4191482, "lat": 41.799217, "slope": 158.59402935692916}, {"city": "Fremont, OH", "lng": -83.1218634, "lat": 41.3503303, "slope": 91.56898186564862}, {"city": "Albemarle, NC", "lng": -80.2000578, "lat": 35.3501426, "slope": 192.73899890615672}, {"city": "Enid, OK", "lng": -97.8791341, "lat": 36.3967623, "slope": 157.4071326681343}, {"city": "Jefferson, GA", "lng": -83.5723876, "lat": 34.1170537, "slope": 297.2745866960433}, {"city": "Laconia, NH", "lng": -71.470351, "lat": 43.5278546, "slope": 552.0374460441056}, {"city": "Batavia, NY", "lng": -78.1875515, "lat": 42.9980144, "slope": 172.45994908017923}, {"city": "Oxford, NC", "lng": -78.5908345, "lat": 36.3107004, "slope": 165.40491690578926}, {"city": "Norwalk, OH", "lng": -82.6157331, "lat": 41.2425531, "slope": 48.500343918709234}, {"city": "Barre, VT", "lng": -72.502213, "lat": 44.197467, "slope": 492.61489512231475}, {"city": "Dublin, GA", "lng": -82.903754, "lat": 32.5404447, "slope": 115.79644366727398}, {"city": "Point Pleasant, WV", "lng": -82.1370889, "lat": 38.8445251, "slope": 122.32335621167367}, {"city": "Sanford, NC", "lng": -79.1802994, "lat": 35.4798757, "slope": 112.08103115118487}, {"city": "Tiffin, OH", "lng": -83.1779537, "lat": 41.114485, "slope": 94.6190422836417}, {"city": "Crossville, TN", "lng": -85.0269015, "lat": 35.9489566, "slope": 229.9861604995445}, {"city": "Gloversville, NY", "lng": -74.34369, "lat": 43.0528133, "slope": 267.68504825986633}, {"city": "Carson City, NV", "lng": -119.7665825, "lat": 39.1648969, "slope": 444.4459333029419}, {"city": "Waycross, GA", "lng": -82.3540178, "lat": 31.2135511, "slope": 134.98743977419534}, {"city": "Oil City, PA", "lng": -79.706441, "lat": 41.433948, "slope": 151.0129683358544}, {"city": "Ontario, OR", "lng": -116.9629378, "lat": 44.0265525, "slope": 318.32635743559314}, {"city": "Payson, AZ", "lng": -111.3251355, "lat": 34.2308684, "slope": 550.7194480614422}, {"city": "Danville, KY", "lng": -84.7721823, "lat": 37.6456488, "slope": 151.20114013277322}, {"city": "Greenville, OH", "lng": -84.6330115, "lat": 40.1028264, "slope": 133.12346612917963}, {"city": "Glasgow, KY", "lng": -85.9119215, "lat": 36.9958841, "slope": 134.64664770385554}, {"city": "Malone, NY", "lng": -74.295044, "lat": 44.84881, "slope": 218.1816308778774}, {"city": "Boone, NC", "lng": -81.6745517, "lat": 36.216795, "slope": 498.5953282821615}, {"city": "Bartlesville, OK", "lng": -95.9782966, "lat": 36.7494864, "slope": 152.01542262976722}, {"city": "St. Marys, GA", "lng": -81.5464928, "lat": 30.7305142, "slope": 272.2138826965244}, {"city": "Amsterdam, NY", "lng": -74.1850436, "lat": 42.943367, "slope": 227.35058577260003}, {"city": "Sidney, OH", "lng": -84.1554987, "lat": 40.2842164, "slope": 168.70090093053722}, {"city": "Cortland, NY", "lng": -76.1804843, "lat": 42.6011813, "slope": 259.2735147249669}, {"city": "Washington, NC", "lng": -77.0535574, "lat": 35.5493702, "slope": 136.70981181533463}, {"city": "Ardmore, OK", "lng": -97.1436254, "lat": 34.1742611, "slope": 169.89817752761178}, {"city": "Nogales, AZ", "lng": -110.9360818, "lat": 31.3402134, "slope": 306.18543837923875}, {"city": "Plymouth, IN", "lng": -86.3097278, "lat": 41.3436555, "slope": 150.95785778548915}, {"city": "Gardnerville Ranchos, NV", "lng": -119.7412875, "lat": 38.8882398, "slope": 673.3190331843493}, {"city": "Tahlequah, OK", "lng": -94.969956, "lat": 35.91537, "slope": 150.26222019277992}, {"city": "Madisonville, KY", "lng": -87.4986989, "lat": 37.3280037, "slope": 113.20446002473992}, {"city": "Ponca City, OK", "lng": -97.0667341, "lat": 36.7267431, "slope": 98.39946905034253}, {"city": "Blytheville, AR", "lng": -89.9189754, "lat": 35.9272953, "slope": 68.82707910822776}, {"city": "Newport, OR", "lng": -124.053442, "lat": 44.636755, "slope": 648.1193577911645}, {"city": "McAlester, OK", "lng": -95.7697934, "lat": 34.9334981, "slope": 155.10582729274958}, {"city": "Moultrie, GA", "lng": -83.7887928, "lat": 31.179998, "slope": 132.78652112124806}, {"city": "Henderson, NC", "lng": -78.3991638, "lat": 36.3295905, "slope": 65.92450798221877}, {"city": "Coldwater, MI", "lng": -85.0005215, "lat": 41.9403263, "slope": 113.80074187987083}, {"city": "Harrison, AR", "lng": -93.1076765, "lat": 36.2297936, "slope": 158.21940884411305}, {"city": "Shelbyville, TN", "lng": -86.4602717, "lat": 35.483406, "slope": 110.02001810770902}, {"city": "Duncan, OK", "lng": -97.9578129, "lat": 34.5023029, "slope": 158.858246623885}, {"city": "Thomasville, GA", "lng": -83.9787808, "lat": 30.8365815, "slope": 172.52652795804082}, {"city": "Selma, AL", "lng": -87.0207473, "lat": 32.4078632, "slope": 82.26737605601126}, {"city": "Bardstown, KY", "lng": -85.4669025, "lat": 37.8092279, "slope": 210.9688957618977}, {"city": "Durant, OK", "lng": -96.3814259, "lat": 33.9958945, "slope": 214.9638796324087}, {"city": "Douglas, GA", "lng": -82.8498654, "lat": 31.5088073, "slope": 111.37266438294044}, {"city": "Sedalia, MO", "lng": -93.2295515, "lat": 38.7098314, "slope": 133.67036417004184}, {"city": "Paragould, AR", "lng": -90.4973286, "lat": 36.0584021, "slope": 156.8012378558526}, {"city": "Lawrenceburg, TN", "lng": -87.3347389, "lat": 35.2423023, "slope": 142.22189817206163}, {"city": "Mountain Home, AR", "lng": -92.3851593, "lat": 36.3353449, "slope": 242.03375580909835}, {"city": "Cedartown, GA", "lng": -85.2559398, "lat": 34.0124425, "slope": 91.27350679431426}, {"city": "Port Clinton, OH", "lng": -82.9376919, "lat": 41.5119954, "slope": 178.9325738249459}, {"city": "Montrose, CO", "lng": -107.8762771, "lat": 38.4781927, "slope": 527.4640835658748}, {"city": "Tifton, GA", "lng": -83.5096866, "lat": 31.4522765, "slope": 168.63003278511727}, {"city": "Urbana, OH", "lng": -83.7524298, "lat": 40.1083912, "slope": 122.56353940908187}, {"city": "Okeechobee, FL", "lng": -80.8287487, "lat": 27.2436957, "slope": 184.58154919215391}, {"city": "McMinnville, TN", "lng": -85.7699816, "lat": 35.683404, "slope": 114.80558560568755}, {"city": "Berlin, NH", "lng": -71.185226, "lat": 44.469071, "slope": 216.1146298394649}, {"city": "Austin, MN", "lng": -92.9744896, "lat": 43.6680928, "slope": 153.7690070458903}, {"city": "Clewiston, FL", "lng": -80.9336753, "lat": 26.7542312, "slope": 195.25235487991088}, {"city": "Defiance, OH", "lng": -84.3557802, "lat": 41.2844933, "slope": 107.34977003873495}, {"city": "Pontiac, IL", "lng": -88.6297839, "lat": 40.8808666, "slope": 137.0301924226184}, {"city": "Houghton, MI", "lng": -88.569012, "lat": 47.121872, "slope": 161.47248024927936}, {"city": "Union City, TN", "lng": -89.0570096, "lat": 36.4242303, "slope": 67.3209236809476}, {"city": "Dyersburg, TN", "lng": -89.3856281, "lat": 36.0345159, "slope": 75.38160838198567}, {"city": "Easton, MD", "lng": -76.0763065, "lat": 38.7744952, "slope": 642.2686822747612}, {"city": "Ada, OK", "lng": -96.6783651, "lat": 34.7743383, "slope": 187.95167030864707}, {"city": "Safford, AZ", "lng": -109.70758, "lat": 32.8339546, "slope": 291.7306496557685}, {"city": "Murray, KY", "lng": -88.314761, "lat": 36.6103334, "slope": 186.43324716754552}, {"city": "Bennington, VT", "lng": -73.1971692, "lat": 42.8783183, "slope": 410.36777394507607}, {"city": "Newton, IA", "lng": -93.0537592, "lat": 41.6996927, "slope": 150.48948418078726}, {"city": "Logan, WV", "lng": -81.9932151, "lat": 37.8487778, "slope": 143.08157069545672}, {"city": "Batesville, AR", "lng": -91.6409722, "lat": 35.769799, "slope": 131.03194174353737}, {"city": "Vidalia, GA", "lng": -82.4134614, "lat": 32.2176855, "slope": 133.58805155615084}, {"city": "Laurinburg, NC", "lng": -79.4628248, "lat": 34.7740495, "slope": 66.85635572488586}, {"city": "Newport, TN", "lng": -83.1876578, "lat": 35.9670412, "slope": 179.11992276214872}, {"city": "Seneca Falls, NY", "lng": -76.7967848, "lat": 42.910719, "slope": 187.88547350213813}, {"city": "Martin, TN", "lng": -88.850338, "lat": 36.3433965, "slope": 118.20339830650548}, {"city": "Arcadia, FL", "lng": -81.8584164, "lat": 27.2158826, "slope": 200.7240047160725}, {"city": "Jackson, OH", "lng": -82.6365537, "lat": 39.0520169, "slope": 85.88928034121456}, {"city": "Frankfort, IN", "lng": -86.5108244, "lat": 40.2797657, "slope": 99.2450981062825}, {"city": "Malvern, AR", "lng": -92.8129463, "lat": 34.3623149, "slope": 171.64225705639885}, {"city": "Macomb, IL", "lng": -90.6713939, "lat": 40.4588934, "slope": 101.08076605276872}, {"city": "Paris, TN", "lng": -88.3267107, "lat": 36.3020023, "slope": 140.53593150739525}, {"city": "Columbus, NE", "lng": -97.3684294, "lat": 41.4296258, "slope": 352.8026059269876}, {"city": "Miami, OK", "lng": -94.877374, "lat": 36.8746177, "slope": 161.06230746684705}, {"city": "Dayton, TN", "lng": -85.0124535, "lat": 35.4939587, "slope": 249.49058348998048}, {"city": "Lewisburg, TN", "lng": -86.7888887, "lat": 35.4492404, "slope": 214.50091296400322}, {"city": "Jesup, GA", "lng": -81.8853924, "lat": 31.6074365, "slope": 178.9260073115253}, {"city": "Alpena, MI", "lng": -83.4327528, "lat": 45.0616794, "slope": 110.74616741983552}, {"city": "Washington Court House, OH", "lng": -83.4390843, "lat": 39.5364511, "slope": 86.26601088551672}, {"city": "Van Wert, OH", "lng": -84.5755178, "lat": 40.8616225, "slope": 121.92365248610623}, {"city": "Ludington, MI", "lng": -86.4477416, "lat": 43.9555406, "slope": 110.68538053409708}, {"city": "Forrest City, AR", "lng": -90.7898342, "lat": 35.0081474, "slope": 34.157160857161706}, {"city": "Bastrop, LA", "lng": -91.9072506, "lat": 32.7757026, "slope": 113.71785781466318}, {"city": "Bainbridge, GA", "lng": -84.5754768, "lat": 30.9038252, "slope": 116.68742924973289}, {"city": "Wauchula, FL", "lng": -81.8114715, "lat": 27.5472589, "slope": 216.86083308975495}, {"city": "Weatherford, OK", "lng": -98.7075744, "lat": 35.5261633, "slope": 171.83326285447728}, {"city": "Thomaston, GA", "lng": -84.3265855, "lat": 32.8881879, "slope": 59.79372847500537}, {"city": "Altus, OK", "lng": -99.3339754, "lat": 34.6381255, "slope": 80.13861442207481}, {"city": "Toccoa, GA", "lng": -83.332881, "lat": 34.5774368, "slope": 117.98312955663576}, {"city": "Summerville, GA", "lng": -85.3477343, "lat": 34.480642, "slope": 74.25613873183093}, {"city": "Steamboat Springs, CO", "lng": -106.8317359, "lat": 40.4848003, "slope": 1300.074481463155}, {"city": "Cordele, GA", "lng": -83.7823938, "lat": 31.9635074, "slope": 126.7873075972082}, {"city": "Arkadelphia, AR", "lng": -93.053784, "lat": 34.1209292, "slope": 116.17463402175254}, {"city": "Sterling, CO", "lng": -103.207709, "lat": 40.6255415, "slope": 303.1925936556018}, {"city": "Brookings, OR", "lng": -124.2840707, "lat": 42.0523718, "slope": 660.6120681883225}, {"city": "Hood River, OR", "lng": -121.5217927, "lat": 45.7053101, "slope": 1022.662430842989}, {"city": "Elk City, OK", "lng": -99.4042592, "lat": 35.4119944, "slope": 193.35358673663546}, {"city": "Prineville, OR", "lng": -120.834972, "lat": 44.2998261, "slope": 464.105684423633}, {"city": "Storm Lake, IA", "lng": -95.1992916, "lat": 42.6453271, "slope": 180.19975419671115}, {"city": "Woodward, OK", "lng": -99.3903862, "lat": 36.4336481, "slope": 215.90890662773032}, {"city": "Fitzgerald, GA", "lng": -83.2526545, "lat": 31.7149082, "slope": 86.79042591981445}, {"city": "Huron, SD", "lng": -98.214388, "lat": 44.36308, "slope": 306.6220811572032}, {"city": "Craig, CO", "lng": -107.5464541, "lat": 40.5152491, "slope": 469.74447181944805}]